[
  {
    "name": "Madison Veterinary Specialists",
    "address": "229 W Beltline Hwy",
    "city": "Madison",
    "phone": "(608) 274-7772",
    "categories": ["Emergency", "Urgent Care", "24-Hour"],
    "photoUrl": "https://placehold.co/600x400/1e293b/94a3b8?text=Madison+Vet+Specialists",
    "hours": "Open 24 hours",
    "websiteUrl": "https://www.mvsvets.com/",
    "googleRating": 4.5,
    "googleReviewCount": 580,
    "googleMapsUrl": "https://www.google.com/maps/search/?api=1&query=Madison+Veterinary+Specialists"
  },
  {
    "name": "Whole Pet Veterinary Clinic",
    "address": "3218 Kingsley Way",
    "city": "Madison",
    "phone": "(608) 270-1313",
    "categories": ["General Practice", "Holistic"],
    "photoUrl": "https://placehold.co/600x400/1e293b/94a3b8?text=Whole+Pet+Vet",
    "hours": "Mon-Fri: 8am-6pm\nSat: 8am-12pm",
    "websiteUrl": "https://wholepetvetclinic.com/",
    "googleRating": 4.8,
    "googleReviewCount": 350,
    "googleMapsUrl": "https://www.google.com/maps/search/?api=1&query=Whole+Pet+Veterinary+Clinic+Madison"
  },
  {
    "name": "Lakeview Veterinary Clinic",
    "address": "1202 N Sherman Ave",
    "city": "Madison",
    "phone": "(608) 244-5868",
    "categories": ["General Practice"],
    "photoUrl": "https://placehold.co/600x400/1e293b/94a3b8?text=Lakeview+Vet+Clinic",
    "hours": "Mon-Fri: 7:30am-6pm",
    "websiteUrl": "https://www.lakeviewpet.com/",
    "googleRating": 4.7,
    "googleReviewCount": 290,
    "googleMapsUrl": "https://www.google.com/maps/search/?api=1&query=Lakeview+Veterinary+Clinic+Madison"
  },
  {
    "name": "PetCare Animal Hospital",
    "address": "6210 Nesbitt Rd",
    "city": "Fitchburg",
    "phone": "(608) 845-6700",
    "categories": ["General Practice", "Urgent Care"],
    "photoUrl": "https://placehold.co/600x400/1e293b/94a3b8?text=PetCare+Animal+Hospital",
    "hours": "Mon-Fri: 8am-7pm\nSat: 8am-2pm",
    "websiteUrl": "https://www.petcareanimalhospital.net/",
    "googleRating": 4.6,
    "googleReviewCount": 410,
    "googleMapsUrl": "https://www.google.com/maps/search/?api=1&query=PetCare+Animal+Hospital+Fitchburg"
  },
  {
    "name": "Middleton Veterinary Hospital",
    "address": "6920 University Ave",
    "city": "Middleton",
    "phone": "(608) 836-8561",
    "categories": ["General Practice"],
    "photoUrl": "https://placehold.co/600x400/1e293b/94a3b8?text=Middleton+Vet+Hospital",
    "hours": "Mon-Fri: 8am-5:30pm",
    "websiteUrl": "https://www.middletonveterinaryhospital.com/",
    "googleRating": 4.9,
    "googleReviewCount": 150,
    "googleMapsUrl": "https://www.google.com/maps/search/?api=1&query=Middleton+Veterinary+Hospital"
  },
    {
    "name": "Sauk Point Veterinary Clinic",
    "address": "726 N High Point Rd",
    "city": "Madison",
    "phone": "(608) 833-2633",
    "categories": ["General Practice"],
    "photoUrl": "https://placehold.co/600x400/1e293b/94a3b8?text=Sauk+Point+Vet",
    "hours": "Mon-Fri: 7:30am-6pm",
    "websiteUrl": "https://www.saukpointvet.com/",
    "googleRating": 4.8,
    "googleReviewCount": 210,
    "googleMapsUrl": "https://www.google.com/maps/search/?api=1&query=Sauk+Point+Veterinary+Clinic"
  }
]
